City_ID,City,Lat,Lng,Max Temp,Humidity,Cloudiness,Wind Speed,Country,Date
0,ilulissat,69.2167,-51.1,-18.95,76,82,3.43,GL,1708711037
1,adamstown,-25.066,-130.1015,26.26,79,68,5.27,PN,1708710773
2,mashhad,36.297,59.6062,7.08,57,40,3.09,IR,1708711038
3,vallenar,-28.5708,-70.7581,27.55,31,0,6.01,CL,1708711038
4,port-aux-francais,-49.35,70.2167,8.74,94,100,12.9,TF,1708710802
5,iqaluit,63.7506,-68.5145,-26.84,62,100,1.54,CA,1708711038
6,jahazpur,25.6167,75.2833,16.06,21,0,2.82,IN,1708711038
7,keflavik,64.0049,-22.5624,2.95,86,40,7.72,IS,1708711039
8,wangkui,46.8333,126.5,-22.34,100,35,1.72,CN,1708711039
9,edinburgh of the seven seas,-37.0676,-12.3116,16.8,74,83,5.89,SH,1708711039
10,lebu,-37.6167,-73.65,16.23,70,30,8.63,CL,1708711039
11,ushuaia,-54.8,-68.3,8.79,71,75,10.29,AR,1708711040
12,bethel,41.3712,-73.414,6.34,83,75,2.57,US,1708711040
13,blackmans bay,-43.0167,147.3167,14.07,72,87,1.34,AU,1708711041
14,bilibino,68.0546,166.4372,-33.7,99,100,1.17,RU,1708711041
15,geraldton,-28.7667,114.6,30.23,51,100,9.77,AU,1708711041
16,suva,-18.1416,178.4415,25.71,94,75,1.03,FJ,1708710771
17,essaouira,31.5125,-9.77,18.72,72,40,7.2,MA,1708711041
18,anadyr,64.75,177.4833,-24.72,75,0,5.0,RU,1708711042
19,hawaiian paradise park,19.5933,-154.9731,22.8,91,40,1.54,US,1708711042
20,thinadhoo,0.5333,72.9333,27.97,81,64,3.56,MV,1708711042
21,masterton,-40.9597,175.6575,17.28,94,44,2.12,NZ,1708711042
22,viedma,-40.8135,-62.9967,21.0,31,1,7.84,AR,1708711043
23,grytviken,-54.2811,-36.5092,8.17,91,100,7.09,GS,1708710804
24,east london,-33.0153,27.9116,23.52,94,100,6.17,ZA,1708711043
25,bethanie,-26.4833,17.15,29.32,10,2,7.67,NA,1708711043
26,miyako,39.6367,141.9525,-4.52,76,48,3.74,JP,1708711044
27,carauari,-4.8828,-66.8958,34.56,44,94,2.23,BR,1708711044
28,fale old settlement,-9.3852,-171.2468,28.72,74,69,3.55,TK,1708711044
29,vilyuysk,63.7553,121.6247,-31.67,100,99,0.89,RU,1708711044
30,avarua,-21.2078,-159.775,26.03,100,100,3.09,CK,1708710772
31,tiksi,71.6872,128.8694,-28.21,99,47,2.98,RU,1708711045
32,port elizabeth,-33.918,25.5701,25.61,90,20,9.26,ZA,1708711045
33,piti village,13.4626,144.6933,26.03,93,100,4.12,GU,1708711045
34,jalai nur,49.45,117.7,-24.33,98,100,1.55,CN,1708711046
35,tres arroyos,-38.3739,-60.2798,24.11,41,100,8.13,AR,1708711046
36,olonkinbyen,70.9221,-8.7187,-0.99,91,79,11.17,SJ,1708711046
37,callaway,30.153,-85.5699,23.34,78,75,9.26,US,1708711046
38,klyuchi,52.2667,79.1667,-19.2,93,98,2.57,RU,1708711047
39,hadibu,12.65,54.0333,24.89,60,66,4.74,YE,1708711047
40,sinop,41.7711,34.8709,6.62,58,92,2.99,TR,1708711047
41,tazovsky,67.4667,78.7,-22.53,99,43,4.1,RU,1708711048
42,invercargill,-46.4,168.35,17.2,63,99,5.35,NZ,1708711048
43,enewetak,11.3474,162.3373,26.02,79,91,8.95,MH,1708711048
44,ribeira grande,38.5167,-28.7,15.99,72,40,3.6,PT,1708711048
45,papatowai,-46.5619,169.4708,14.92,66,77,2.79,NZ,1708711048
46,mendoza,-32.8908,-68.8272,25.74,27,40,4.12,AR,1708710491
47,udachny,66.4167,112.4,-26.02,75,100,1.26,RU,1708711049
48,waitangi,-43.9535,-176.5597,17.12,95,32,1.79,NZ,1708711049
49,wailua homesteads,22.0669,-159.378,21.24,76,49,5.13,US,1708711049
50,urangan,-25.3,152.9,26.78,81,93,3.58,AU,1708711050
51,swift current,50.2834,-107.8014,0.45,74,0,8.75,CA,1708711050
52,kankaanpaa,61.8,22.4167,3.42,100,100,5.38,FI,1708711050
53,vernon,50.2581,-119.2691,8.5,92,26,2.57,CA,1708711050
54,nantucket,41.2835,-70.0995,7.23,87,100,3.6,US,1708710925
55,ust'-ilimsk,58.0006,102.6619,-24.2,99,88,2.24,RU,1708711050
56,canutama,-6.5339,-64.3831,35.16,41,99,2.61,BR,1708711051
57,okhotsk,59.3833,143.3,-24.24,78,14,6.7,RU,1708711051
58,yellowknife,62.456,-114.3525,-10.71,85,75,2.57,CA,1708711051
59,sandnessjoen,66.0217,12.6316,5.29,60,40,11.83,NO,1708711051
60,west island,-12.1568,96.8225,27.99,78,95,4.63,CC,1708710769
61,namibe,-15.1961,12.1522,25.07,80,51,4.71,AO,1708711052
62,alice springs,-23.7,133.8833,27.9,36,0,3.6,AU,1708710975
63,hermanus,-34.4187,19.2345,19.89,81,3,3.8,ZA,1708711052
64,afaahiti,-17.75,-149.2833,28.93,79,97,2.29,PF,1708711052
65,lihue,21.9789,-159.3672,21.58,76,58,4.57,US,1708711052
66,margaret river,-33.95,115.0667,18.36,84,100,5.19,AU,1708711053
67,puerto natales,-51.7236,-72.4875,11.25,50,75,6.69,CL,1708711053
68,alo,7.4178,6.7371,29.6,22,99,1.86,NG,1708711053
69,pisco,-13.7,-76.2167,27.03,69,0,4.63,PE,1708711053
70,kayangel,8.0823,134.7173,27.33,79,97,6.62,PW,1708711054
71,anatuya,-28.4606,-62.8347,26.4,58,97,8.74,AR,1708711054
72,sorong,-0.8833,131.25,27.07,83,100,5.07,ID,1708711054
73,north bend,43.4065,-124.2243,12.26,93,0,2.06,US,1708711054
74,lilongwe,-13.9669,33.7873,21.25,91,100,1.15,MW,1708710771
75,beloyarskiy,63.7119,66.6722,-6.67,95,100,4.02,RU,1708711054
76,aral,40.5156,81.2636,-1.86,41,98,1.53,CN,1708711055
77,morant bay,17.8815,-76.4093,27.79,52,5,3.78,JM,1708711055
78,whitehorse,60.7161,-135.0538,-4.57,54,75,1.54,CA,1708711055
79,morondava,-20.2833,44.2833,28.63,77,99,2.47,MG,1708711055
80,prince george,53.9166,-122.753,1.81,82,100,9.26,CA,1708711052
81,withamsville,39.0623,-84.2883,14.26,61,0,6.17,US,1708711056
82,coahuayana de hidalgo,18.7,-103.6583,30.79,47,3,2.87,MX,1708711056
83,jamestown,42.097,-79.2353,11.68,59,30,3.58,US,1708710771
84,smithers,54.7804,-127.1743,1.18,75,75,1.03,CA,1708710927
85,punta del este,-34.9667,-54.95,28.06,85,20,5.66,UY,1708711059
86,port douglas,-16.4833,145.4667,26.02,87,50,2.63,AU,1708711059
87,kichmengskiy gorodok,59.9816,45.7854,-5.03,89,100,4.47,RU,1708711059
88,albany,42.6001,-73.9662,6.47,83,100,0.45,US,1708711059
89,truro,50.2653,-5.0544,6.6,79,40,9.26,GB,1708711060
90,kyshtovka,56.555,76.6271,-27.03,99,79,1.79,RU,1708711060
91,nova sintra,14.8667,-24.7167,21.46,69,97,7.12,CV,1708711060
92,la'ie,21.6477,-157.9253,23.98,73,80,3.13,US,1708711061
93,bredasdorp,-34.5322,20.0403,19.5,74,21,4.51,ZA,1708711061
94,nemuro,43.3236,145.575,-7.74,60,89,4.31,JP,1708711061
95,mugia,43.1041,-9.2179,8.84,70,95,14.22,ES,1708711062
96,pokachi,61.7198,75.3683,-17.04,97,95,3.71,RU,1708711062
97,remire-montjoly,4.9167,-52.2667,31.02,66,40,6.17,GF,1708711062
98,soeng sang,14.4264,102.4606,26.71,66,49,2.47,TH,1708711062
99,mount gambier,-37.8333,140.7667,11.41,84,82,2.18,AU,1708711063
100,constantia,44.1833,28.65,10.39,87,31,7.13,RO,1708710845
101,polyarnyy,69.1989,33.4478,1.99,81,100,9.63,RU,1708711063
102,el granada,37.5027,-122.4694,14.89,77,0,4.63,US,1708711064
103,stanley,54.868,-1.6985,4.77,80,87,2.84,GB,1708710770
104,dimitrovgrad,54.2139,49.6184,-21.34,97,24,2.15,RU,1708711064
105,kodiak,57.79,-152.4072,-8.27,86,0,2.57,US,1708711064
106,weno,7.4515,151.8468,26.97,94,100,4.12,FM,1708711064
107,qaqortoq,60.7167,-46.0333,-8.27,71,37,1.46,GL,1708711065
108,jieshi,22.8134,115.8257,17.27,83,93,8.83,CN,1708711065
109,vilyuchinsk,52.9306,158.4028,-16.15,85,82,4.04,RU,1708711066
110,san andres,12.5847,-81.7006,27.01,65,40,2.06,CO,1708711066
111,bobo-dioulasso,11.1771,-4.2979,35.25,5,0,2.57,BF,1708711066
112,ikalamavony,-21.15,46.5833,22.01,89,100,2.36,MG,1708711066
113,longyearbyen,78.2186,15.6401,-3.09,63,75,1.54,SJ,1708710774
114,codrington,-38.2667,141.9667,14.2,70,89,4.6,AU,1708711067
115,tsiombe,-25.3,45.4833,24.16,84,0,6.78,MG,1708711067
116,laguna,38.421,-121.4238,15.35,82,0,3.09,US,1708711067
117,moree,-29.4667,149.85,25.49,63,100,0.87,AU,1708711067
118,valparaiso,-33.0393,-71.6273,26.13,61,0,5.14,CL,1708711067
119,saipan,15.1355,145.701,26.39,83,100,5.14,MP,1708710850
120,fort mcmurray,56.7268,-111.381,4.77,52,0,8.23,CA,1708711068
121,la passe,45.5549,-0.8967,7.13,76,99,11.18,FR,1708711068
122,mandal,25.45,74.5667,15.36,22,0,0.51,IN,1708711068
123,tual,-5.6667,132.75,28.35,79,59,5.35,ID,1708711068
124,xuanzhou,30.9525,118.7553,-1.38,95,100,2.03,CN,1708711069
125,bamboo flat,11.7,92.7167,26.05,83,20,1.03,IN,1708711069
126,westport,41.1415,-73.3579,8.02,83,100,0.45,US,1708711069
127,tura,25.5198,90.2201,16.68,31,37,1.17,IN,1708711069
128,port lincoln,-34.7333,135.8667,16.85,63,76,5.85,AU,1708711000
129,gamba,-2.65,10.0,26.71,84,96,4.72,GA,1708711069
130,jirja,26.3383,31.8916,17.12,67,100,2.06,EG,1708711069
131,san-pedro,4.7485,-6.6363,28.6,76,86,5.07,CI,1708711070
132,belmonte,-15.8631,-38.8828,28.06,78,97,3.14,BR,1708711070
133,utrik,11.2278,169.8474,25.95,82,98,10.44,MH,1708711070
134,alesund,62.4723,6.1549,5.97,89,75,10.29,NO,1708711070
135,chonchi,-42.6128,-73.8092,17.84,47,94,1.21,CL,1708711070
136,wurtulla,-26.7568,153.1256,25.17,88,99,3.55,AU,1708711071
137,port mathurin,-19.6833,63.4167,27.14,86,69,6.06,MU,1708711071
138,xinqing,48.2333,129.5,-21.62,100,54,1.33,CN,1708711071
139,mount isa,-20.7333,139.5,24.87,83,40,2.57,AU,1708711071
140,luderitz,-26.6481,15.1594,17.45,84,0,5.3,NA,1708711071
141,governador valadares,-18.8511,-41.9494,27.23,81,97,0.72,BR,1708711071
142,saudarkrokur,65.7461,-19.6394,-1.09,96,96,6.85,IS,1708711072
143,ola,59.5833,151.2833,-23.65,86,96,3.77,RU,1708711072
144,st. john's,47.5649,-52.7093,2.31,91,75,5.14,CA,1708710743
145,thompson,55.7435,-97.8558,-21.91,71,75,3.09,CA,1708711072
146,haiku-pauwela,20.9219,-156.3051,22.8,75,30,2.24,US,1708711073
147,porbandar,21.6422,69.6093,21.66,36,0,5.01,IN,1708711073
148,chissamba,-12.1667,17.3333,22.43,71,86,1.17,AO,1708711073
149,georgetown,5.4112,100.3354,27.97,78,20,2.24,MY,1708710506
150,sangkhla buri,15.1555,98.4536,20.5,65,0,0.81,TH,1708711073
151,longido,-2.7333,36.6833,22.91,48,73,6.4,TZ,1708711073
152,ishigaki,24.3448,124.1572,18.07,94,75,3.6,JP,1708711074
153,kas,36.2018,29.6377,13.8,77,5,1.34,TR,1708711074
154,fisterra,42.9049,-9.2629,8.75,69,83,15.08,ES,1708711074
155,elverum,60.8819,11.5623,3.26,76,100,8.6,NO,1708711074
156,ugoofaaru,5.6667,73.0,28.33,74,100,4.12,MV,1708711074
157,sao tome,0.3365,6.7273,27.24,83,100,4.17,ST,1708710774
158,puerto ayora,-0.7393,-90.3518,30.98,90,12,2.68,EC,1708711075
159,quepos,9.4236,-84.1652,30.25,65,16,3.84,CR,1708710720
160,abatskoye,56.2875,70.4555,-21.67,90,45,3.08,RU,1708711075
161,amboasary,-25.0333,46.3833,23.88,87,0,4.77,MG,1708711075
162,praia da vitoria,38.7333,-27.0667,16.53,67,20,1.19,PT,1708711075
163,petropavlovsk-kamchatsky,53.0452,158.6483,-16.97,89,0,4.47,RU,1708711075
164,tamanrasset,22.785,5.5228,20.95,11,0,2.06,DZ,1708711076
165,porto novo,6.4965,2.6036,28.9,65,91,2.46,BJ,1708711076
166,college,64.8569,-147.8028,-10.01,85,75,2.06,US,1708711076
167,heber city,40.5069,-111.4132,6.11,62,3,0.45,US,1708711076
168,kapa'a,22.0752,-159.319,21.99,76,52,6.57,US,1708710796
169,zuni pueblo,35.0725,-108.8506,6.35,21,96,2.11,US,1708711076
170,jiazi,22.8779,116.067,16.9,84,99,8.27,CN,1708711077
171,stornoway,58.2093,-6.3865,3.35,88,20,1.03,GB,1708711077
172,cidreira,-30.1811,-50.2056,28.0,66,79,2.87,BR,1708711077
173,lazaro cardenas,17.9583,-102.2,28.06,58,30,2.64,MX,1708711077
174,port alfred,-33.5906,26.891,23.43,93,51,2.68,ZA,1708711077
175,sinabang,2.4803,96.3801,26.49,84,83,1.06,ID,1708711077
176,talnakh,69.4865,88.3972,-18.22,97,100,4.46,RU,1708711077
177,hami,42.8,93.45,-4.59,57,36,2.16,CN,1708711078
178,istmina,5.1605,-76.684,32.33,54,98,1.48,CO,1708711078
179,anna regina,7.2644,-58.5077,29.17,64,8,4.29,GY,1708711078
180,tolanaro,-25.0319,46.9987,26.04,83,20,8.23,MG,1708711078
181,neyshabur,36.2133,58.7958,7.62,41,22,0.69,IR,1708711078
182,cabo san lucas,22.8909,-109.9124,25.9,63,100,2.26,MX,1708710961
183,kalabo,-14.97,22.6814,26.07,32,40,2.44,ZM,1708711079
184,qalat,32.1058,66.9083,4.12,37,0,2.64,AF,1708711079
185,nar'yan-mar,67.6713,53.087,-1.05,94,100,7.6,RU,1708711079
186,magadan,59.5667,150.8,-25.02,85,87,3.31,RU,1708711079
187,cruz del eje,-30.7264,-64.8039,23.95,61,97,4.31,AR,1708711079
188,ventspils,57.3894,21.5606,4.96,87,0,4.63,LV,1708711079
189,kashgar,39.4547,75.9797,-1.44,59,40,1.0,CN,1708711080
190,mirnyy,62.5353,113.9611,-28.0,100,100,1.55,RU,1708711080
191,sangueya,10.7,-14.3667,31.22,43,65,5.25,GN,1708711080
192,chabahar,25.2919,60.643,22.36,60,0,3.88,IR,1708711080
193,campo largo,-25.4586,-49.5283,27.79,52,22,0.97,BR,1708711080
194,christchurch,-43.5333,172.6333,15.11,90,100,3.09,NZ,1708710305
195,inhambane,-23.865,35.3833,28.99,70,20,3.13,MZ,1708711081
196,nanma,36.1817,118.1583,-5.56,87,100,1.61,CN,1708711081
197,roccella ionica,38.322,16.4009,13.85,86,98,8.28,IT,1708711081
198,aswan,24.0934,32.907,28.61,17,0,4.63,EG,1708711081
199,hithadhoo,-0.6,73.0833,28.32,79,96,4.58,MV,1708711081
200,taltal,-25.4,-70.4833,23.12,68,6,2.67,CL,1708711082
201,thames,-37.1333,175.5333,13.68,94,2,0.74,NZ,1708711082
202,sonoita,31.85,-112.8333,19.88,30,100,3.41,MX,1708711082
203,da nang,16.0678,108.2208,24.99,88,75,2.57,VN,1708711082
204,dakhla,23.6848,-15.958,21.01,64,0,12.35,EH,1708711082
205,skovorodino,53.9833,123.9167,-27.9,100,33,1.21,RU,1708711083
206,uturoa,-16.7333,-151.4333,27.99,73,95,1.8,PF,1708711083
207,bardai,11.65,7.2333,28.84,23,40,2.94,NG,1708711083
208,ust-nera,64.5667,143.2,-34.06,100,90,1.16,RU,1708711083
209,bubaque,11.2833,-15.8333,27.21,55,51,5.56,GW,1708711083
210,hanceville,34.0607,-86.7675,18.98,46,33,5.03,US,1708711083
211,badger,64.8,-147.5333,-10.05,88,75,2.06,US,1708711084
212,verkhnevilyuysk,63.4453,120.3167,-32.22,100,89,0.93,RU,1708711084
213,amga,60.8953,131.9608,-37.55,100,96,0.24,RU,1708711084
214,edd,13.9297,41.6925,30.57,35,77,8.88,ER,1708711084
215,castillos,-34.1667,-53.8333,25.05,74,67,5.25,UY,1708711085
216,leninsk,48.7119,45.1994,-4.86,84,19,3.31,RU,1708711085
217,bikenibeu village,1.3673,173.1241,27.98,89,20,1.54,KI,1708711085
218,akureyri,65.6835,-18.0878,-0.04,93,100,9.77,IS,1708711085
219,taoudenni,22.6783,-3.9836,25.62,11,0,2.27,ML,1708711086
220,lompoc,34.6391,-120.4579,18.85,78,0,4.63,US,1708711086
221,gadzhiyevo,69.2551,33.3362,1.84,80,100,9.77,RU,1708711086
222,lewisburg,35.4492,-86.7889,16.82,55,0,2.57,US,1708711086
223,atafu village,-8.5421,-172.5159,28.96,74,31,3.94,TK,1708711086
224,moyale,3.5167,39.0584,27.16,34,92,5.91,KE,1708711086
225,santa cruz,-17.8,-63.1667,29.03,74,75,7.72,BO,1708711087
226,dover,39.1582,-75.5244,10.12,84,100,3.09,US,1708711028
227,wynyard,-41.0,145.7167,11.75,75,5,2.92,AU,1708711088
228,flying fish cove,-10.4217,105.6791,25.82,88,49,2.06,CX,1708710771
229,sisimiut,66.9395,-53.6735,-14.09,70,100,8.0,GL,1708711089
230,yeed,4.55,43.0333,31.18,22,100,4.76,SO,1708711089
231,aasiaat,68.7098,-52.8699,-21.72,90,37,4.16,GL,1708711091
232,kingston,17.997,-76.7936,28.42,51,20,2.06,JM,1708710547
233,taro,-8.3862,115.28,24.0,93,100,0.94,ID,1708711092
234,san rafael del sur,11.8485,-86.4384,28.54,28,0,3.58,NI,1708711092
235,hasaki,35.7333,140.8333,2.38,58,100,9.94,JP,1708711093
236,freetown,8.484,-13.2299,27.98,60,25,5.06,SL,1708710774
237,usinsk,65.9939,57.5281,-6.63,94,100,9.39,RU,1708711094
238,calama,-22.4667,-68.9333,23.27,31,0,9.26,CL,1708711094
239,kikvidze,50.7416,43.0518,-4.68,91,74,4.33,RU,1708711094
240,niquero,20.0431,-77.5828,25.51,55,6,1.6,CU,1708711095
241,talitsy,56.5289,42.3344,-3.02,94,99,4.33,RU,1708711095
242,imbituba,-28.24,-48.6703,29.13,63,21,2.74,BR,1708711015
243,arraial do cabo,-22.9661,-42.0278,29.92,70,75,4.12,BR,1708711095
244,ramadi,33.4226,43.3058,17.39,41,94,1.68,IQ,1708711095
245,bernalillo,35.05,-106.6673,12.6,30,100,4.12,US,1708711096
246,sokoni,-6.4333,39.55,28.92,78,78,6.84,TZ,1708711096
247,morehead city,34.7229,-76.726,14.03,88,100,8.23,US,1708711097
248,hamilton,39.1834,-84.5333,14.56,63,0,4.12,US,1708710803
249,sechura,-5.5569,-80.8222,29.79,59,39,4.29,PE,1708711097
250,colonel hill,22.7667,-74.2167,23.26,59,89,5.71,BS,1708711097
251,alenquer,-1.9417,-54.7383,36.29,31,11,2.27,BR,1708711098
252,saurimo,-9.6608,20.3916,21.26,90,95,1.64,AO,1708711098
253,molde,62.7375,7.1591,5.39,87,75,10.8,NO,1708711013
254,iskateley,67.6803,53.1512,-1.1,94,100,7.6,RU,1708711098
255,vanimo,-2.6741,141.3028,25.15,90,99,2.39,PG,1708711098
256,zeya,53.75,127.2667,-24.17,97,6,1.62,RU,1708711099
257,tangalle,6.024,80.7911,25.89,84,98,2.42,LK,1708711099
258,balao,-2.9167,-79.8167,26.65,75,85,2.03,EC,1708711099
259,novyy urengoy,66.0833,76.6333,-21.44,99,35,4.43,RU,1708711100
260,novo aripuana,-5.1206,-60.3797,36.0,35,55,2.33,BR,1708711100
261,ta`u,-14.2336,-169.5144,28.03,75,98,4.28,AS,1708711100
262,black river,18.0264,-77.8487,26.69,48,0,3.12,JM,1708711100
263,kailua-kona,19.6406,-155.9956,20.84,67,2,0.77,US,1708710843
264,sur,22.5667,59.5289,23.36,55,0,1.91,OM,1708711101
265,sungai penuh,-2.0833,101.3833,19.12,98,100,0.46,ID,1708711101
266,katsuren-haebaru,26.3369,127.8719,21.43,75,100,3.09,JP,1708711102
267,egilsstadir,65.2653,-14.3948,-0.05,100,100,5.66,IS,1708711102
268,clearwater,27.9659,-82.8001,24.95,74,0,10.8,US,1708710837
269,whangarei,-35.7317,174.3239,15.44,97,23,0.87,NZ,1708711103
270,muynoq,43.7683,59.0214,-1.27,63,98,4.13,UZ,1708711103
271,zheshart,62.0731,49.5733,-4.93,92,100,3.79,RU,1708711103
272,kirakira,-10.4544,161.9205,26.82,86,100,2.48,SB,1708711103
273,huarmey,-10.0681,-78.1522,27.34,71,49,5.42,PE,1708711104
274,changping,40.2186,116.2197,-2.2,56,100,1.03,CN,1708710993
275,toliara,-23.35,43.6667,27.91,81,34,3.44,MG,1708711104
276,newcastle,-32.9272,151.7765,23.21,94,100,5.66,AU,1708711104
277,pandan,14.0453,124.1694,25.42,83,61,4.81,PH,1708711104
278,mali,12.079,-12.2982,26.49,10,43,2.69,GN,1708711105
279,altendorf,47.1914,8.8294,7.11,82,100,1.83,CH,1708711105
280,crane,31.3974,-102.3501,17.33,29,67,4.06,US,1708711105
281,aitape,-3.1374,142.3475,25.52,91,100,2.71,PG,1708711105
282,portland,45.5234,-122.6762,11.08,85,55,1.79,US,1708710740
283,flin flon,54.7682,-101.865,-18.09,71,100,4.12,CA,1708711106
284,rongelap,11.1635,166.8941,26.17,81,94,10.16,MH,1708711106
285,isafjordur,66.0755,-23.124,-2.28,90,98,5.32,IS,1708711106
286,sovetskaya gavan',48.9723,140.2878,-19.39,87,7,2.63,RU,1708711106
287,batang,-6.4846,110.7083,26.83,88,100,1.81,ID,1708711106
288,rocha,-34.4833,-54.3333,23.43,81,78,3.02,UY,1708711107
289,bad belzig,52.1333,12.6,7.49,74,100,3.39,DE,1708711107
290,hollabrunn,48.55,16.0833,10.8,92,100,0.89,AT,1708711107
291,la ronge,55.1001,-105.2842,-9.86,73,40,5.14,CA,1708711107
292,minas de marcona,-15.2119,-75.1103,24.8,59,37,5.82,PE,1708711107
293,jindabyne,-36.4167,148.6333,9.76,91,45,1.19,AU,1708711108
294,tralee,52.2704,-9.7026,5.14,87,100,3.6,IE,1708711108
295,balykshi,47.0667,51.8667,-8.0,62,0,3.0,KZ,1708711108
296,san patricio,28.017,-97.5169,24.53,43,17,5.62,US,1708711108
297,svetlyy,54.675,20.1347,7.98,83,100,2.2,RU,1708711095
298,al-hamdaniya,36.2715,43.3737,12.57,69,100,2.26,IQ,1708711108
299,guerrero negro,27.9769,-114.0611,21.2,42,100,0.61,MX,1708711108
300,carnarvon,-24.8667,113.6333,26.94,74,100,6.07,AU,1708711109
301,lu-uk,5.9684,121.3122,25.81,84,1,0.4,PH,1708711109
302,yarmouth,41.7057,-70.2286,8.31,88,100,2.24,US,1708711109
303,haldwani,29.2167,79.5167,12.85,16,0,2.74,IN,1708711109
304,peace river,56.2501,-117.286,5.17,52,75,9.77,CA,1708711109
305,vyazemskiy,47.5378,134.7525,-21.08,96,46,1.94,RU,1708711110
306,kristiansund,63.1115,7.732,5.36,81,75,4.63,NO,1708711110
307,cullera,39.1667,-0.25,16.24,35,53,3.58,ES,1708711110
308,prince rupert,54.3161,-130.3201,5.83,87,100,4.12,CA,1708710910
309,mount pearl,47.5166,-52.7813,1.64,90,75,5.14,CA,1708711110
310,lashio,22.9333,97.75,14.32,62,0,0.87,MM,1708711111
311,kavaratti,10.5669,72.642,27.69,65,77,4.03,IN,1708711111
312,colonia,50.9333,6.95,8.87,69,0,4.12,DE,1708710874
313,kananga,-5.8958,22.4178,23.23,83,99,1.54,CD,1708711111
314,lachute,45.6501,-74.3325,5.46,100,98,3.76,CA,1708711111
315,ciudad bolivar,8.1222,-63.5497,36.37,27,63,3.04,VE,1708711111
316,siwa oasis,29.2041,25.5195,18.1,42,100,3.7,EG,1708711112
317,inarajan village,13.2736,144.7484,26.08,94,100,6.56,GU,1708711112
318,taroa,8.7058,171.2275,27.57,79,97,8.59,MH,1708711112
319,safi,32.1667,-8.8333,14.06,67,96,7.26,MA,1708711112
320,villa gesell,-37.2639,-56.973,24.47,67,100,5.58,AR,1708711112
321,taber,49.8167,-112.1518,5.0,62,6,7.2,CA,1708711112
322,gafanha da nazare,40.6362,-8.7134,13.05,84,72,10.58,PT,1708711113
323,san matias,-16.3667,-58.4,29.23,61,100,2.41,BO,1708711113
324,mana,5.6592,-53.7767,29.84,62,27,5.77,GF,1708711113
325,aripuana,-9.1667,-60.6333,33.28,48,100,1.29,BR,1708711113
326,tuy hoa,13.0833,109.3,23.51,90,4,2.2,VN,1708711113
327,alta,69.9689,23.2717,2.59,80,75,30.4,NO,1708711114
328,delmas,18.5447,-72.3028,28.4,45,20,4.12,HT,1708711114
329,alaghsas,17.0187,8.0168,28.94,8,0,5.66,NE,1708711114
330,puerto armuelles,8.2833,-82.8667,32.99,54,11,1.79,PA,1708711058
331,nabire,-3.3667,135.4833,24.4,93,90,0.91,ID,1708711114
332,tosontsengel,48.7567,98.2839,-31.98,100,83,0.44,MN,1708711114
333,golden,39.7555,-105.2211,9.99,30,0,7.6,US,1708711006
334,mejit,10.2753,170.8646,26.32,84,77,9.86,MH,1708711115
335,key west,24.5557,-81.7826,26.0,66,40,6.17,US,1708710882
336,barcelos,41.5388,-8.6151,11.08,80,63,8.12,PT,1708711115
337,camabatela,-8.1881,15.375,20.06,95,100,1.16,AO,1708711115
338,cockburn town,21.4612,-71.1419,23.96,54,30,4.52,TC,1708710801
339,waddan,29.1614,16.139,16.95,35,0,2.69,LY,1708711116
340,narvik,68.4384,17.4272,3.67,85,86,5.58,NO,1708711116
341,kalachinsk,55.0529,74.5751,-28.88,97,41,1.23,RU,1708711116
342,marco island,25.9363,-81.7157,23.33,66,20,6.69,US,1708711116
343,new norfolk,-42.7826,147.0587,14.72,84,92,1.6,AU,1708711116
344,ciudad acuna,29.3232,-100.9522,22.39,30,0,2.57,MX,1708711117
345,antanifotsy,-19.65,47.3167,17.39,95,95,1.68,MG,1708711117
346,al mijlad,11.0333,27.7333,30.77,21,31,1.42,SD,1708711117
347,bangil,-7.5994,112.8186,26.99,90,98,1.72,ID,1708711117
348,nadym,65.5333,72.5167,-15.35,96,98,5.42,RU,1708711118
349,burang,30.25,81.1667,-19.41,98,67,1.76,CN,1708711118
350,dobryanka,58.4619,56.4165,-15.86,98,65,2.37,RU,1708711118
351,pasni,25.2631,63.471,22.6,58,0,6.59,PK,1708711118
352,ji'an,27.1172,114.9793,1.87,91,100,2.54,CN,1708711118
353,fuentes de andalucia,37.4641,-5.3462,13.4,72,97,6.43,ES,1708711119
354,magdagachi,53.45,125.8,-25.14,97,6,1.5,RU,1708711119
355,taksimo,56.3444,114.8794,-20.26,99,100,0.08,RU,1708711119
356,dehloran,32.6941,47.2679,18.11,40,89,0.81,IR,1708711119
357,drayton valley,53.2168,-114.9854,2.47,57,6,4.28,CA,1708710987
358,kapuskasing,49.4169,-82.4331,-19.95,59,40,4.12,CA,1708711120
359,bhainsdehi,21.6467,77.6325,18.29,33,0,0.81,IN,1708711120
360,bazarak,35.3129,69.5152,-9.44,65,14,5.2,AF,1708711120
361,holualoa,19.6228,-155.9522,19.32,67,12,0.92,US,1708711120
362,salinas,36.6777,-121.6555,14.88,83,100,2.63,US,1708710988
363,kasulu,-4.5767,30.1025,19.57,87,100,0.72,TZ,1708711121
364,selu,19.4667,76.4667,23.11,24,3,3.75,IN,1708711121
365,puerto baquerizo moreno,-0.9,-89.6,27.55,89,75,4.63,EC,1708711121
366,tingi,-11.3,35.0333,19.81,97,99,2.16,TZ,1708711121
367,bowen,-20.0167,148.2333,24.09,88,100,3.13,AU,1708711121
368,calvinia,-31.4707,19.776,21.89,27,36,3.43,ZA,1708711121
369,prado,-17.3411,-39.2208,28.26,74,100,3.78,BR,1708711122
370,tazacorte,28.629,-17.9293,20.64,79,20,6.17,ES,1708711122
371,barra de santo antonio,-9.4047,-35.5072,31.6,67,10,4.38,BR,1708711122
372,yokadouma,3.5167,15.05,27.09,51,100,0.83,CM,1708711122
373,recreo,-29.2818,-65.061,21.31,79,100,3.43,AR,1708711122
374,loncoche,-39.3667,-72.6333,23.01,28,29,2.88,CL,1708711123
375,piton saint-leu,-21.2196,55.3151,25.04,83,20,2.06,RE,1708711123
376,nuuk,64.1835,-51.7216,-8.66,48,75,5.66,GL,1708710645
377,bandarbeyla,9.4942,50.8122,25.84,69,100,7.9,SO,1708711124
378,ust'-kut,56.7938,105.7672,-25.93,100,100,1.48,RU,1708711124
379,happy valley-goose bay,53.3168,-60.3315,1.17,60,75,4.63,CA,1708711124
380,pristen',51.2355,36.6959,0.17,84,97,7.02,RU,1708711125
381,hecun,36.5333,114.1111,-4.3,84,90,1.29,CN,1708711125
382,slave lake,55.2834,-114.769,7.99,31,75,10.29,CA,1708711125
383,raduzhny,62.0961,77.475,-20.22,100,88,2.9,RU,1708711125
384,shira,54.4911,89.9531,-28.16,94,23,1.71,RU,1708711126
385,gustavsberg,59.3268,18.3898,5.21,86,65,6.32,SE,1708711126
386,yelizovo,53.1873,158.3805,-16.22,59,0,4.02,RU,1708711126
387,yur'yevets,57.3201,43.1041,-4.8,94,100,6.0,RU,1708711126
388,harper,4.375,-7.7169,27.96,79,79,5.42,LR,1708711126
389,itaituba,-4.2761,-55.9836,33.09,46,40,5.14,BR,1708711126
390,gizo,-8.103,156.8419,27.61,80,99,4.85,SB,1708711127
391,caister-on-sea,52.6481,1.7265,7.13,77,97,1.28,GB,1708711127
392,novyy urgal,51.0736,132.5642,-32.79,100,55,0.67,RU,1708711127
393,rengasdengklok,-6.1592,107.2981,26.08,88,99,1.88,ID,1708711127
394,punta arenas,-53.15,-70.9167,11.06,43,40,10.8,CL,1708710381
395,pushkinskiye gory,57.0209,28.9103,3.14,93,100,5.72,RU,1708711128
396,fort bragg,35.139,-79.006,14.34,93,100,5.66,US,1708711128
397,robore,-18.3333,-59.75,31.05,62,75,3.09,BO,1708711128
398,yeppoon,-23.1333,150.7333,23.88,82,92,0.28,AU,1708711128
399,port macquarie,-31.4333,152.9167,23.59,78,89,5.47,AU,1708710890
400,sarkand,45.41,79.9186,-5.27,94,100,1.46,KZ,1708711128
401,contai,21.7786,87.7536,23.42,70,29,2.88,IN,1708711129
402,riverside,33.7333,-116.0508,19.92,35,100,2.42,US,1708711129
403,urucara,-2.5364,-57.76,37.1,34,25,1.98,BR,1708711129
404,muisne,0.6,-80.0333,28.09,74,72,2.51,EC,1708711129
405,taman',45.2117,36.7161,6.35,82,59,5.22,RU,1708711129
406,zubova polyana,54.0771,42.8372,-6.18,94,99,4.75,RU,1708711130
407,maintirano,-18.0667,44.0167,26.29,91,100,2.72,MG,1708711130
408,reynosa,26.0833,-98.2833,26.62,41,0,6.69,MX,1708711064
409,papao,-17.75,-149.55,29.82,79,96,3.13,PF,1708711130
410,saint-joseph,-21.3667,55.6167,25.21,85,98,3.09,RE,1708711130
411,lata,40.1629,-8.3327,9.49,85,69,5.84,PT,1708711130
412,mili,6.0815,171.735,28.0,79,46,8.73,MH,1708711130
413,mgandu,-5.95,34.1333,18.26,89,98,2.16,TZ,1708711131
414,aykhal,66.0,111.5,-23.36,61,100,1.28,RU,1708711131
415,karratha,-20.7377,116.8463,28.68,81,82,6.76,AU,1708711131
416,errachidia,31.9275,-4.4285,25.03,6,0,1.03,MA,1708711131
417,saint-philippe,-21.3585,55.7679,25.77,85,96,4.74,RE,1708711131
418,margate,51.3813,1.3862,5.94,79,78,2.68,GB,1708711132
419,coaldale,49.7167,-112.6185,5.82,56,75,11.83,CA,1708711132
420,labrador city,52.9463,-66.9114,0.1,69,100,8.49,CA,1708711132
421,northam,51.0333,-4.2167,5.7,89,88,5.84,GB,1708711132
422,naryn,41.4287,75.9911,-12.36,79,100,1.74,KG,1708711132
423,beau vallon,-20.4189,57.6953,26.78,94,75,1.54,MU,1708711132
424,xai-xai,-25.0519,33.6442,25.38,78,7,5.22,MZ,1708711133
425,oranjemund,-28.55,16.4333,17.48,89,0,3.15,NA,1708711133
426,ambovombe,-25.1667,46.0833,23.85,85,0,7.43,MG,1708711133
427,dalby,-27.1833,151.2667,25.14,70,98,5.42,AU,1708711133
428,coquimbo,-29.9533,-71.3436,23.85,60,0,6.17,CL,1708710797
429,kasongo-lunda,-6.4667,16.8167,24.53,88,100,0.98,CD,1708711133
430,rikaze,29.25,88.8833,-5.03,35,23,2.55,CN,1708711134
431,lib,8.3122,167.3766,27.08,83,88,9.17,MH,1708711134
432,kerikeri,-35.2268,173.9474,15.51,92,15,0.5,NZ,1708711134
433,turpan,42.9333,89.1667,-0.89,33,96,0.7,CN,1708711134
434,khandyga,62.6667,135.6,-44.54,100,56,0.94,RU,1708711134
435,burlington,39.8835,-74.6413,9.42,81,100,2.57,US,1708710931
436,whakatane,-37.9585,176.9854,13.62,99,20,1.87,NZ,1708711135
437,kuhmo,64.1333,29.5167,0.86,97,100,6.41,FI,1708711135
438,mirny,62.5353,113.9611,-28.0,100,100,1.55,RU,1708711135
439,ebolowa,2.9,11.15,24.28,83,86,1.79,CM,1708711135
440,juneau,58.3019,-134.4197,2.0,88,100,3.09,US,1708711135
441,patur,20.45,76.9333,22.27,25,0,2.19,IN,1708711135
442,mugumu,-1.85,34.7,20.98,52,70,3.61,TZ,1708711136
443,kone,-21.0595,164.8658,23.94,90,43,2.04,NC,1708711136
444,vavuniya,8.7514,80.4971,23.17,88,99,1.65,LK,1708711136
445,vytegra,61.0064,36.4481,0.2,93,97,5.36,RU,1708711136
446,battagram,34.6772,73.0233,5.51,50,71,2.72,PK,1708711136
447,mahina,-17.5065,-149.489,29.87,70,0,2.06,PF,1708710985
448,mafraq,32.3333,37.9167,16.52,36,100,2.69,JO,1708711137
449,yamada,39.4667,141.95,-4.7,78,69,3.67,JP,1708711137
450,xining,36.6167,101.7667,-8.24,88,96,1.1,CN,1708711137
451,novodvinsk,64.4165,40.8122,-1.14,92,93,4.57,RU,1708711137
452,kidal,18.4411,1.4078,27.26,8,0,2.97,ML,1708711137
453,pocatello,42.8713,-112.4455,3.99,80,20,2.24,US,1708711138
454,newman,37.3138,-121.0208,11.7,88,100,2.5,US,1708711003
455,tshikapa,-6.4167,20.8,24.7,91,98,1.59,CD,1708711138
456,fortuna,40.5982,-124.1573,13.32,86,0,4.12,US,1708711138
457,igrim,63.1906,64.4162,-5.77,95,100,3.91,RU,1708711138
458,constitucion,-35.3333,-72.4167,21.42,53,1,5.97,CL,1708710957
459,severo-yeniseyskiy,60.3725,93.0408,-23.01,99,100,2.24,RU,1708711139
460,tieli,46.95,128.05,-21.34,99,39,1.63,CN,1708711139
461,gainesville,29.6516,-82.3248,22.91,70,100,8.75,US,1708711139
462,sursee,47.1667,8.1,6.55,71,40,1.03,CH,1708711139
463,mahibadhoo,3.7833,72.9667,27.93,75,100,3.32,MV,1708711140
464,umm ruwaba,12.9061,31.2158,30.73,27,64,4.89,SD,1708711140
465,greymouth,-42.4667,171.2,10.62,91,42,2.52,NZ,1708711140
466,zhalantun,48.0,122.7167,-16.39,90,99,2.66,CN,1708711140
467,raduzhnyy,62.0961,77.475,-20.22,100,88,2.9,RU,1708711140
468,mont-dore,-22.2833,166.5833,23.99,89,80,2.9,NC,1708711140
469,queenstown,-31.8976,26.8753,22.85,48,10,2.2,ZA,1708711141
470,lorengau,-2.0226,147.2712,27.36,80,100,3.05,PG,1708711141
471,lycksele,64.5954,18.6735,0.93,93,100,8.23,SE,1708711141
472,susuman,62.7833,148.1667,-28.9,99,99,0.89,RU,1708711141
473,labytnangi,66.6572,66.4183,-19.25,99,94,1.72,RU,1708711141
474,port saint john's,-31.6229,29.5448,24.48,92,34,6.07,ZA,1708711141
475,acarau,-2.8856,-40.12,28.77,69,98,2.94,BR,1708711142
476,nadi,-17.8,177.4167,24.0,94,40,2.06,FJ,1708711142
477,brookings,44.3114,-96.7984,2.0,84,75,5.66,US,1708711142
478,nova vicosa,-17.8919,-39.3719,28.76,72,100,4.36,BR,1708711142
479,beboto,8.2668,16.939,30.68,20,68,3.69,TD,1708711142
480,kotabumi,-4.8333,104.9,24.58,95,100,0.52,ID,1708711143
481,machali,-34.1833,-70.6667,24.6,50,20,1.03,CL,1708711143
482,dudinka,69.4058,86.1778,-17.99,94,100,7.89,RU,1708711143
483,vadso,70.0744,29.7487,2.09,75,40,13.89,NO,1708711143
484,forio,40.7342,13.8646,15.24,85,100,3.58,IT,1708711143
485,kiffa,16.6166,-11.4045,30.85,6,69,5.87,MR,1708711144
486,walvis bay,-22.9575,14.5053,17.83,76,36,6.21,NA,1708711144
487,rabo de peixe,37.8,-25.5833,17.77,99,40,4.63,PT,1708711144
488,igarka,67.4667,86.5833,-19.37,96,98,5.27,RU,1708711144
489,jerome,42.7241,-114.5186,6.71,70,0,2.57,US,1708711144
490,terrace,54.5163,-128.6035,2.95,93,100,10.8,CA,1708711144
491,vermillion,42.7794,-96.9292,8.17,49,88,7.91,US,1708711145
492,chibougamau,49.9168,-74.3659,-17.21,66,75,5.14,CA,1708711145
493,jelcz laskowice,51.0213,17.3165,8.86,89,100,4.04,PL,1708711145
494,oban,56.4127,-5.4706,4.65,82,80,3.02,GB,1708711145
495,icano,-28.9193,-65.3282,20.1,90,100,3.4,AR,1708711145
496,jining,35.405,116.5814,-3.4,81,95,2.8,CN,1708711145
497,cabedelo,-6.9811,-34.8339,31.37,69,19,6.03,BR,1708711146
498,dire dawa,9.5931,41.8661,22.02,65,88,2.92,ET,1708711146
499,segarcea,44.1,23.75,13.15,49,94,3.42,RO,1708711146
500,lewistown,40.5992,-77.5714,11.76,81,40,0.0,US,1708711146
501,santa rita do passa quatro,-21.7103,-47.4781,31.0,69,63,0.95,BR,1708711146
502,garissa,-0.4536,39.6401,31.51,50,99,7.77,KE,1708711147
503,amalapuram,16.5833,82.0167,23.38,93,26,1.02,IN,1708711147
504,orange,33.7,-117.7675,22.64,51,75,1.54,US,1708711146
505,ostersund,63.1792,14.6357,2.25,87,75,11.83,SE,1708711148
506,tougue,11.4667,-11.6,31.28,9,36,2.61,GN,1708711148
507,dawei,14.0833,98.2,22.3,73,1,0.97,MM,1708710911
508,kodinsk,58.6881,99.1844,-19.23,98,100,2.17,RU,1708711148
509,pacasmayo,-7.4006,-79.5714,27.4,69,35,5.65,PE,1708711148
510,phan rang-thap cham,11.5667,108.9833,23.47,87,4,2.65,VN,1708711149
511,zyryanskoye,56.8306,86.6258,-22.18,97,100,1.34,RU,1708711149
512,bucerias,20.75,-105.3333,27.45,46,63,2.97,MX,1708711107
513,ulladulla,-35.35,150.4667,17.64,84,100,3.83,AU,1708711149
514,as sulayyil,20.4607,45.5779,24.14,22,0,4.77,SA,1708711149
515,lisburn,54.5234,-6.0353,5.69,77,86,5.14,GB,1708711149
516,"laikit, laikit ii (dimembe)",1.4792,124.9735,21.47,94,20,0.51,ID,1708711150
517,concepcion,-36.827,-73.0498,20.89,49,0,6.69,CL,1708711021
518,brokopondo,4.75,-55.1667,32.85,45,7,0.82,SR,1708711150
519,el nido,11.1858,119.3956,26.11,82,87,3.28,PH,1708711150
520,fort st. john,56.2499,-120.8529,3.94,52,75,8.75,CA,1708711150
521,sabang,5.8933,95.3214,28.23,76,24,4.84,ID,1708711151
522,coalinga,36.1397,-120.3602,12.25,67,100,1.79,US,1708711151
523,dryden,49.7833,-92.7503,-16.84,66,20,2.06,CA,1708711151
524,da lat,11.9465,108.4419,13.35,86,10,1.14,VN,1708711151
525,kargil,34.5667,76.1,-24.44,85,100,1.38,IN,1708711151
526,malango,-2.9627,119.9001,20.84,98,100,0.48,ID,1708711152
527,faaa,-17.55,-149.6,29.98,70,0,2.06,PF,1708711152
528,bor,56.3567,44.0669,-3.04,94,99,4.22,RU,1708711152
529,gornopravdinsk,60.05,69.9,-11.21,95,100,3.51,RU,1708711152
530,kauhava,63.103,23.0713,3.36,98,100,6.06,FI,1708711152
531,vilhena,-12.7406,-60.1458,25.12,78,20,3.09,BR,1708711153
532,harstad,68.799,16.5293,3.66,81,81,3.59,NO,1708711153
533,richards bay,-28.783,32.0377,26.11,77,26,6.17,ZA,1708711153
534,sao jose da coroa grande,-8.8978,-35.1478,29.88,65,22,4.8,BR,1708711153
535,vorgashor,67.5833,63.95,-7.66,95,100,5.71,RU,1708711154
536,pacific grove,36.6177,-121.9166,14.26,79,0,2.06,US,1708711154
537,ko pha ngan,9.7578,100.0291,24.99,72,19,4.15,TH,1708711154
538,posto fiscal rolim de moura,-13.0833,-62.2667,27.56,82,100,1.77,BR,1708711154
539,chui,-33.6971,-53.4616,28.91,56,64,4.64,UY,1708711154
540,lame,10.4415,9.2396,23.23,33,100,1.15,NG,1708711154
541,chuguyevka,44.1653,133.8633,-19.12,99,89,1.26,RU,1708711155
542,sitka,57.0531,-135.33,2.94,70,40,0.0,US,1708711155
543,guiuan,11.0333,125.7247,27.15,70,93,5.43,PH,1708711155
544,g'azalkent,41.5581,69.7708,0.34,98,100,1.16,UZ,1708711155
545,kill devil hills,36.0307,-75.676,13.0,94,100,8.23,US,1708711155
546,gorodishche,48.8045,44.4744,-4.51,74,75,6.0,RU,1708711156
547,loukhi,66.0764,33.0381,0.85,91,100,5.85,RU,1708711156
548,homer,59.6425,-151.5483,-2.07,74,0,2.06,US,1708711156
549,hassi messaoud,31.6804,6.0729,22.92,20,40,5.14,DZ,1708711156
550,salinopolis,-0.6136,-47.3561,27.66,84,64,4.98,BR,1708711156
551,polovinnoye,54.7914,65.9864,-21.22,99,21,2.95,RU,1708711156
552,okha,53.5739,142.9478,-24.56,97,25,4.56,RU,1708711157
553,pariaman,-0.619,100.12,27.03,93,100,2.41,ID,1708711108
554,hammerfest,70.6634,23.6821,3.25,75,0,6.17,NO,1708711157
555,mil'kovo,55.6078,37.7956,1.91,92,100,6.89,RU,1708711157
556,archangelos,36.2149,28.1149,15.17,77,14,2.43,GR,1708711158
557,kyenjojo,0.6328,30.6214,20.3,66,89,0.24,UG,1708711158
558,banswada,18.3833,77.8833,24.48,28,3,1.87,IN,1708711158
559,poronaysk,49.2167,143.1167,-23.04,95,16,1.42,RU,1708711158
560,rio grande,-32.035,-52.0986,32.06,66,55,5.49,BR,1708710860
561,bentota,6.4254,79.9948,26.44,84,87,2.13,LK,1708711159
562,oriximina,-1.7656,-55.8661,35.39,38,10,3.27,BR,1708711159
563,aylmer,42.7668,-80.983,7.92,60,40,5.46,CA,1708711159
564,al kharijah,25.4514,30.5464,20.67,37,100,4.34,EG,1708711159
565,hobyo,5.3505,48.5268,27.52,62,96,9.89,SO,1708711159
566,savastepe,39.3832,27.6561,9.84,85,48,2.4,TR,1708711160
567,moron,-34.6534,-58.6198,28.87,58,100,2.24,AR,1708711160
568,barsukovskaya,44.7632,41.8191,2.08,80,61,5.54,RU,1708711160
569,phu ly,20.5411,105.9139,18.2,90,100,1.99,VN,1708711160
